Segment name,Longitude,Latitude,Length(km),Width(km),Strike(◦),Dip(◦)
Savrun,36.520130,38.005252,28,20,74,110
Cardak,36.824423,38.080845,70,20,102,110
Gök_Hill,37.607312,37.961607,24,20,59,90
Sögüt,37.839693,38.075523,46,20,54,90
Yesilköy,36.728407,37.898674,18,20,0,130
